,City,Cloudiness,Country,Date,Humidity,Lat,Lng,Max Temp,Wind Speed
0,namibe,85,AO,1578408217,84,-15.19,12.15,73.47,9.24
1,port lincoln,0,AU,1578408217,66,-34.72,135.86,66.76,10.56
2,ribeira grande,40,PT,1578408217,88,38.52,-28.7,66.2,13.87
3,lincoln,75,GB,1578408072,87,53.23,-0.54,52.0,20.8
4,deputatskiy,100,RU,1578408218,92,69.3,139.9,-6.23,2.93
5,umarkot,32,PK,1578408218,76,25.37,69.74,57.0,10.67
6,butaritari,100,KI,1578408162,80,3.07,172.79,84.09,14.76
7,vila franca do campo,75,PT,1578408218,88,37.72,-25.43,66.2,11.41
8,sidney,20,US,1578407933,78,47.72,-104.16,15.8,8.05
9,lasa,75,CY,1578408218,71,34.92,32.53,57.2,8.05
10,chokurdakh,0,RU,1578408218,96,70.62,147.9,-22.72,4.45
11,carnarvon,99,ZA,1578408218,39,-30.97,22.13,77.94,20.13
12,southbridge,40,US,1578408218,68,42.08,-72.03,36.0,7.74
13,bethel,1,US,1578407924,68,60.79,-161.76,-18.4,12.75
14,gusinoye ozero,0,RU,1578408218,93,51.11,106.26,-6.18,1.95
15,atuona,63,PF,1578408218,70,-9.8,-139.03,81.12,15.99
16,qaanaaq,9,GL,1578408218,75,77.48,-69.36,-21.35,4.29
17,norman wells,5,CA,1578408218,64,65.28,-126.83,-45.4,2.24
18,vaini,20,IN,1578408029,69,15.34,74.49,75.2,3.31
19,luderitz,0,NA,1578408219,57,-26.65,15.16,75.2,23.04
20,east london,20,ZA,1578408165,83,-33.02,27.91,73.4,17.22
21,cape town,3,ZA,1578407983,42,-33.93,18.42,84.2,11.41
22,mataura,40,NZ,1578408219,78,-46.19,168.86,48.0,3.0
23,souillac,90,FR,1578408219,93,45.6,-0.6,53.6,4.7
24,yarada,75,IN,1578408219,78,17.65,83.27,73.4,5.82
25,san joaquin,100,PH,1578408219,80,10.59,122.14,75.9,6.8
26,barrow,0,AR,1578408219,21,-38.31,-60.23,81.77,14.27
27,yeppoon,49,AU,1578408219,78,-23.13,150.74,73.4,4.7
28,brewster,1,US,1578408219,51,41.76,-70.08,39.99,6.93
29,plouzane,90,FR,1578408219,100,48.38,-4.62,55.4,21.92
30,nikolskoye,90,RU,1578408219,86,59.7,30.79,37.4,8.95
31,cherskiy,0,RU,1578408219,78,68.75,161.3,-19.43,7.11
32,georgetown,75,GY,1578408060,88,6.8,-58.16,80.6,6.93
33,dunedin,95,NZ,1578408032,82,-45.87,170.5,49.44,16.71
34,dikson,98,RU,1578408219,97,73.51,80.55,3.43,6.67
35,puerto ayora,20,EC,1578408220,74,-0.74,-90.35,80.6,11.41
36,new norfolk,90,AU,1578407974,82,-42.78,147.06,59.0,8.05
37,lompoc,1,US,1578408220,55,34.64,-120.46,46.0,5.82
38,punta arenas,100,CL,1578407964,62,-53.16,-70.91,57.2,19.46
39,honiara,40,SB,1578408220,94,-9.43,159.96,75.2,3.87
40,hobart,90,AU,1578408003,82,-42.88,147.33,59.0,8.05
41,vestmannaeyjar,90,IS,1578408220,80,63.44,-20.27,35.6,49.44
42,upernavik,100,GL,1578408220,85,72.79,-56.15,-13.72,5.46
43,seoul,90,KR,1578408220,100,37.57,126.98,46.4,3.36
44,nome,1,US,1578408220,76,30.04,-94.42,51.8,4.7
45,bambanglipuro,100,ID,1578408220,92,-7.95,110.28,74.91,2.77
46,dzilam gonzalez,93,MX,1578408220,68,21.28,-88.93,73.49,13.24
47,ushuaia,75,AR,1578407930,58,-54.81,-68.31,59.0,9.6
48,kungur,100,RU,1578408220,95,57.43,56.94,12.4,2.66
49,barstow,1,US,1578408221,57,31.46,-103.39,23.0,5.06
50,bluff,52,AU,1578408159,85,-23.58,149.07,70.99,9.93
51,vao,100,EE,1578408221,93,59.1,26.19,39.11,10.47
52,mahebourg,40,MU,1578408221,79,-20.41,57.7,84.2,3.36
53,sao joao da barra,0,BR,1578408221,55,-21.64,-41.05,91.4,4.7
54,bonavista,98,CA,1578408221,92,48.65,-53.11,24.28,7.58
55,sorland,40,NO,1578407997,81,67.67,12.69,44.6,24.16
56,sungairaya,100,ID,1578408221,90,0.7,108.9,76.82,2.13
57,albany,40,US,1578408075,64,42.65,-73.75,35.01,5.82
58,havre-saint-pierre,90,CA,1578408221,84,50.23,-63.6,5.0,13.87
59,pyapon,0,MM,1578408221,64,16.29,95.68,72.57,2.06
60,saskylakh,58,RU,1578408221,97,71.97,114.09,-3.64,7.65
61,airai,98,TL,1578408221,78,-8.93,125.41,68.38,3.76
62,faanui,38,PF,1578408221,79,-16.48,-151.75,81.16,17.38
63,araouane,42,ML,1578408221,8,18.9,-3.53,76.42,7.27
64,kenai,1,US,1578408221,75,60.55,-151.26,-6.0,3.36
65,aitape,100,PG,1578408221,78,-3.15,142.36,82.83,11.59
66,flinders,40,AU,1578408221,94,-34.58,150.85,71.01,6.93
67,rikitea,0,PF,1578407951,82,-23.12,-134.97,76.41,17.34
68,kapaa,75,US,1578408222,83,22.08,-159.32,75.2,24.16
69,jamestown,0,AU,1578407982,38,-33.21,138.6,74.16,12.97
70,rio grande,0,BR,1578408222,33,-32.03,-52.1,86.0,11.41
71,chapais,75,CA,1578408222,84,49.78,-74.86,-0.4,5.82
72,avarua,74,CK,1578408222,100,-21.21,-159.78,73.4,4.7
73,tecpan,16,GT,1578408222,71,14.76,-90.99,59.56,3.85
74,kruisfontein,100,ZA,1578408222,73,-34.0,24.73,73.85,18.23
75,petropavl,100,KZ,1578408222,95,54.87,69.13,17.98,1.3
76,provideniya,58,RU,1578408222,96,64.42,-173.23,-12.95,1.45
77,aleksandrov gay,100,RU,1578408222,79,50.14,48.57,28.35,6.02
78,lichinga,100,MZ,1578408222,91,-13.3,35.25,74.03,3.62
79,acapulco,75,MX,1578408116,83,16.86,-99.88,75.2,4.7
80,mantua,90,IT,1578408222,70,45.16,10.79,37.0,4.7
81,pevek,0,RU,1578408222,74,69.7,170.27,-7.02,12.08
82,severo-kurilsk,98,RU,1578408222,88,50.68,156.12,20.79,11.7
83,port elizabeth,1,US,1578408222,55,39.31,-74.98,42.01,4.25
84,itarema,92,BR,1578408222,46,-2.92,-39.92,91.65,10.13
85,tuktoyaktuk,5,CA,1578408164,66,69.44,-133.03,-31.0,8.05
86,kununurra,100,AU,1578408223,78,-15.77,128.74,80.6,4.7
87,pimentel,67,BR,1578408223,66,-3.7,-45.5,86.16,3.42
88,ayan,0,IR,1578408223,61,38.23,44.7,17.22,5.79
89,houston,1,US,1578408027,43,29.76,-95.37,54.0,10.29
90,tomatlan,66,MX,1578408223,48,19.93,-105.25,67.84,1.34
91,kaitangata,69,NZ,1578408223,84,-46.28,169.85,48.0,3.0
92,saint-pierre,90,FR,1578408223,100,48.95,4.24,44.6,11.41
93,saint george,20,GR,1578408223,33,39.45,22.34,46.4,5.82
94,mar del plata,2,AR,1578408223,27,-46.43,-67.52,72.45,34.76
95,kjollefjord,100,NO,1578408223,97,70.95,27.35,33.8,29.97
96,makakilo city,75,US,1578408223,73,21.35,-158.09,75.2,16.11
97,ahipara,18,NZ,1578408223,95,-35.17,173.16,53.01,18.66
98,necochea,0,AR,1578408223,46,-38.55,-58.74,80.01,7.0
99,bredasdorp,100,ZA,1578408223,54,-34.53,20.04,82.4,17.22
100,hilo,40,US,1578408223,77,19.71,-155.08,70.0,6.93
101,montmagny,90,FR,1578408223,93,48.97,2.34,48.99,8.05
102,victoria,75,BN,1578408223,83,5.28,115.24,82.4,4.7
103,longyearbyen,40,NO,1578408224,67,78.22,15.63,21.2,40.26
104,busselton,0,AU,1578408224,34,-33.64,115.35,68.0,8.9
105,prince rupert,20,CA,1578408224,86,54.32,-130.32,30.2,6.93
106,dalvik,75,SE,1578408224,100,57.79,14.13,39.0,11.41
107,klaksvik,100,FO,1578408224,87,62.23,-6.59,46.4,19.46
108,nyurba,100,RU,1578408224,94,63.29,118.35,12.27,5.93
109,tongliao,100,CN,1578407944,92,43.61,122.27,7.45,15.52
110,sinop,75,TR,1578408224,87,42.03,35.15,53.6,12.75
111,inhambane,0,MZ,1578408224,69,-23.87,35.38,82.54,12.53
112,lagos,0,NG,1578408055,44,6.46,3.39,93.2,14.99
113,pokrovsk,100,RU,1578408224,91,61.48,129.14,13.59,6.76
114,sioux lookout,90,CA,1578408224,71,50.1,-91.92,5.0,18.34
115,chuy,0,UY,1578408224,34,-33.69,-53.46,79.41,9.93
116,rocha,0,UY,1578408086,25,-34.48,-54.34,78.73,16.13
117,taonan,89,CN,1578408225,93,45.34,122.78,6.42,12.35
118,oinoi,75,GR,1578408225,65,38.32,23.61,46.99,8.05
119,isangel,28,VU,1578408225,81,-19.55,169.27,75.36,13.56
120,yelizovo,100,RU,1578408225,57,53.19,158.38,19.4,2.24
121,quatre cocos,40,MU,1578408225,79,-20.21,57.76,84.2,3.36
122,saint-georges,100,CA,1578408225,24,46.12,-70.67,21.0,10.0
123,doha,0,QA,1578408132,60,25.29,51.53,68.0,11.41
124,chota,20,EC,1578408225,87,0.47,-78.07,50.0,4.7
125,maba,0,CN,1578408225,71,24.68,113.59,58.32,4.5
126,lorengau,100,PG,1578408225,79,-2.02,147.27,83.39,16.42
127,uvalde,1,US,1578408173,55,29.21,-99.79,46.99,4.52
128,waingapu,100,ID,1578408225,72,-9.65,120.26,84.15,16.96
129,ugoofaaru,97,MV,1578408222,74,5.67,73.0,82.94,18.28
130,erzin,90,TR,1578408225,100,36.95,36.2,51.8,5.82
131,garowe,33,SO,1578408226,26,8.41,48.48,87.71,14.2
132,palaikastron,100,GR,1578408124,69,35.2,26.25,50.0,18.99
133,hermanus,22,ZA,1578408226,90,-34.42,19.24,69.13,16.69
134,kungurtug,0,RU,1578408226,77,50.6,97.53,-3.95,2.66
135,mirnyy,99,RU,1578408226,92,56.57,36.46,29.26,7.14
136,kuryk,100,KZ,1578408226,69,43.18,51.68,45.86,25.41
137,port hardy,90,CA,1578408226,93,50.7,-127.42,41.0,20.8
138,goba,100,ET,1578408226,90,7.01,39.97,53.87,2.08
139,san quintin,0,PH,1578408226,90,17.54,120.52,69.66,3.58
140,san patricio,6,PY,1578408226,29,-26.98,-56.83,89.22,6.89
141,yellowknife,20,CA,1578408226,73,62.45,-114.38,-31.0,6.93
142,arraial do cabo,0,BR,1578408226,59,-22.97,-42.02,89.6,8.05
143,leningradskiy,0,RU,1578408226,82,69.38,178.42,-12.75,13.76
144,altamira,100,BR,1578408226,56,-3.2,-52.21,85.93,5.32
145,saint-philippe,1,CA,1578408226,73,45.36,-73.48,28.4,4.7
146,matagami,0,NG,1578408227,17,9.67,8.4,93.96,4.18
147,outlook,65,CA,1578408227,72,51.48,-107.04,-9.0,4.25
148,severnoye,93,RU,1578408227,97,54.09,52.54,21.07,1.32
149,thompson,75,CA,1578408227,75,55.74,-97.86,-14.8,6.93
150,ballangen,75,NO,1578408227,80,68.34,16.83,39.2,14.99
151,aswan,0,EG,1578408227,24,24.09,32.9,65.75,10.25
152,biak,65,ID,1578408227,71,-0.91,122.88,83.03,12.46
153,ngunguru,0,NZ,1578408227,77,-35.62,174.5,55.99,1.01
154,biltine,0,TD,1578408227,14,14.53,20.93,89.69,11.3
155,ponta do sol,4,BR,1578408159,60,-20.63,-46.0,83.75,4.72
156,sobolevo,98,RU,1578408227,97,54.43,31.9,28.31,6.11
157,kambove,100,CD,1578408227,91,-10.88,26.6,71.92,3.02
158,aklavik,5,CA,1578408227,65,68.22,-135.01,-31.0,3.36
159,katobu,100,ID,1578408227,91,-4.94,122.53,77.23,1.92
160,cabo san lucas,5,MX,1578408115,62,22.89,-109.91,64.99,9.17
161,ilulissat,20,GL,1578408188,63,69.22,-51.1,-7.6,23.04
162,talnakh,75,RU,1578408228,85,69.49,88.39,10.4,20.13
163,helena,40,US,1578408228,69,46.59,-112.04,37.99,7.43
164,kodiak,1,US,1578408228,80,39.95,-94.76,30.2,10.29
165,khatanga,100,RU,1578408228,95,71.98,102.47,5.79,8.39
166,port alfred,100,ZA,1578408228,91,-33.59,26.89,71.01,3.0
167,leninsk,90,RU,1578408228,92,48.69,45.2,28.4,8.95
168,udachnyy,0,RU,1578408228,92,66.42,112.4,8.6,2.24
169,clyde river,75,CA,1578407934,67,70.47,-68.59,-25.6,10.29
170,bambous virieux,40,MU,1578408228,79,-20.34,57.76,84.2,3.36
171,bozuyuk,75,TR,1578408228,86,39.91,30.04,41.0,9.17
172,scarborough,100,GB,1578408228,87,54.28,-0.41,53.6,11.41
173,blagodarnyy,100,RU,1578408228,95,45.1,43.44,35.85,4.7
174,brainerd,1,US,1578408228,66,46.36,-94.2,19.4,5.82
175,lata,100,IN,1578408229,98,30.78,78.62,16.43,8.23
176,dalbandin,0,PK,1578408204,41,28.9,64.41,50.88,10.51
177,northam,0,AU,1578408229,64,-31.65,116.67,70.0,6.93
178,beyneu,75,KZ,1578408229,77,45.32,55.19,28.94,9.04
179,ravar,0,IR,1578408229,44,31.27,56.81,46.06,1.32
180,vanersborg,90,SE,1578408229,87,58.38,12.32,45.0,12.75
181,cape canaveral,1,US,1578408229,72,28.41,-80.6,62.01,4.7
182,narsaq,20,GL,1578408229,41,60.91,-46.05,3.2,5.82
183,bhag,0,PK,1578408229,69,29.04,67.82,59.45,5.68
184,werda,100,BW,1578408229,78,-25.27,23.28,69.69,1.45
185,bafoulabe,53,ML,1578408229,8,13.81,-10.83,90.48,4.52
186,charters towers,68,AU,1578408229,84,-20.07,146.27,74.5,9.75
187,el tambo,20,CO,1578408229,72,1.41,-77.39,68.0,3.36
188,touros,75,BR,1578408229,49,-5.2,-35.46,91.4,11.41
189,ancud,90,CL,1578408230,87,-41.87,-73.83,55.4,14.99
190,warmbad,90,DE,1578408230,93,50.67,13.08,39.99,4.7
191,cervignano del friuli,75,IT,1578408230,65,45.82,13.34,45.0,2.24
192,geraldton,20,CA,1578408230,85,49.72,-86.95,10.4,3.36
193,miri,6,NG,1578408230,17,10.31,9.75,88.86,9.53
194,manaure,40,CO,1578408230,66,11.78,-72.45,84.2,13.87
195,menongue,45,AO,1578408230,70,-14.66,17.68,75.69,6.13
196,laguna,90,BZ,1578408230,88,16.17,-88.94,69.8,3.29
197,magistralnyy,99,RU,1578408230,92,56.17,107.45,14.23,4.52
198,saldanha,12,PT,1578408230,53,41.42,-6.55,50.81,2.13
199,sibolga,70,ID,1578408230,97,1.74,98.78,72.32,3.06
200,toora-khem,0,RU,1578408230,90,52.47,96.11,-6.18,0.72
201,la ronge,5,CA,1578408230,69,55.1,-105.3,-13.0,11.41
202,kahului,75,US,1578408230,73,20.89,-156.47,73.4,11.41
203,kupang,20,ID,1578408230,94,-10.16,123.6,78.8,2.24
204,bandarbeyla,0,SO,1578408230,75,9.49,50.81,79.05,22.24
205,pisco,75,PE,1578408230,30,-13.71,-76.2,73.0,5.82
206,hasaki,75,JP,1578408231,100,35.73,140.83,39.2,12.75
207,the pas,90,CA,1578408025,76,53.82,-101.24,-7.6,13.87
208,virginia beach,1,US,1578408085,100,36.85,-75.98,50.0,14.72
209,zhigansk,100,RU,1578408231,96,66.77,123.37,-2.06,9.69
210,katsuura,75,JP,1578408231,82,33.93,134.5,60.8,19.46
211,port macquarie,87,AU,1578408231,69,-31.43,152.91,75.2,9.17
212,coquimbo,0,CL,1578408231,64,-29.95,-71.34,68.0,16.11
213,arman,68,RU,1578408231,79,59.7,150.17,10.53,7.31
214,monrovia,40,LR,1578408231,59,6.33,-10.8,91.4,8.05
215,torrington,1,US,1578408231,51,42.06,-104.18,39.99,17.22
216,bilma,34,NE,1578408231,11,18.69,12.92,71.2,11.16
217,vitim,100,RU,1578408231,93,59.44,112.57,18.93,11.07
218,isoka,100,ZM,1578408231,84,-10.15,32.64,73.0,2.15
219,avera,90,US,1578408231,81,33.19,-82.53,54.0,6.93
220,sisimiut,100,GL,1578408231,99,66.94,-53.67,-7.89,9.13
221,yeniseysk,99,RU,1578408231,96,58.45,92.17,7.02,4.63
222,teguise,20,ES,1578408232,77,29.06,-13.56,66.2,17.22
223,gazanjyk,23,TM,1578408232,62,39.24,55.52,39.51,9.78
224,nyuksenitsa,94,RU,1578408232,94,60.41,44.24,19.04,7.07
225,cayenne,75,GF,1578408232,70,4.94,-52.33,86.0,16.11
226,torbay,90,CA,1578408232,92,47.66,-52.73,28.99,3.36
227,fortuna,1,US,1578408232,93,40.6,-124.16,37.99,10.29
228,haljala,100,EE,1578408232,89,59.43,26.27,40.68,11.7
229,priargunsk,0,RU,1578408232,99,50.37,119.09,-8.52,1.97
230,itapirapua,100,BR,1578407973,75,-15.82,-50.61,80.69,5.84
231,dryden,90,CA,1578408232,71,49.79,-92.84,3.2,16.11
232,bermejo,100,AR,1578408232,62,-22.73,-64.34,81.0,1.01
233,mount isa,93,AU,1578408232,55,-20.73,139.49,86.0,17.22
234,kolosovka,100,RU,1578408232,96,56.47,73.61,9.7,5.41
235,husavik,100,CA,1578408232,79,50.56,-96.99,-0.99,15.01
236,pangody,1,RU,1578408232,94,65.85,74.49,-3.03,12.88
237,rawson,0,AR,1578408233,48,-43.3,-65.11,67.59,14.7
238,kerouane,31,GN,1578408233,14,12.23,-12.34,87.62,9.35
239,port hedland,90,AU,1578408233,58,-20.31,118.58,86.0,14.99
240,gat,100,SN,1578408233,11,14.69,-16.54,78.8,16.11
241,nador,0,MA,1578408160,62,35.17,-2.93,60.8,8.05
242,maracaju,100,BR,1578408233,93,-21.61,-55.17,75.52,2.04
243,sassandra,0,CI,1578408233,42,4.95,-6.09,86.41,10.69
244,ust-kulom,100,RU,1578408233,94,61.69,53.69,12.0,7.56
245,cockburn town,40,TC,1578408233,69,21.46,-71.14,78.8,6.93
246,castro,90,CL,1578408233,87,-42.48,-73.76,55.4,14.99
247,kurumkan,21,RU,1578408233,89,54.33,110.32,-3.57,1.5
248,aykhal,61,RU,1578408233,92,65.95,111.51,8.6,2.24
249,oktyabrskoye,75,RU,1578408233,92,56.73,85.44,21.0,11.18
250,carutapera,79,BR,1578408233,72,-1.2,-46.02,82.4,7.49
251,taltal,0,CL,1578408234,64,-25.41,-70.49,68.88,7.34
252,coahuayana,9,MX,1578408234,43,18.62,-100.35,73.54,0.58
253,codrington,1,AU,1578408234,78,-28.95,153.24,73.0,6.93
254,kawalu,55,ID,1578408234,96,-7.38,108.21,70.92,1.41
255,portland,75,US,1578407860,74,43.66,-70.25,33.01,17.25
256,umm kaddadah,8,SD,1578408234,14,13.6,26.69,84.58,12.26
257,sur,42,OM,1578408234,60,22.57,59.53,69.93,19.48
258,acajutla,0,SV,1578408234,64,13.59,-89.83,72.0,2.24
259,dingle,100,PH,1578408234,90,11.0,122.67,73.99,8.34
260,knysna,20,ZA,1578408234,100,-34.04,23.05,69.8,16.11
261,vila velha,40,BR,1578408234,62,-3.71,-38.6,86.0,8.05
262,lerwick,20,GB,1578408234,87,60.15,-1.15,50.0,34.45
263,bathsheba,40,BB,1578408234,51,13.22,-59.52,86.0,17.22
264,puerto madryn,0,AR,1578407973,19,-42.77,-65.04,78.6,21.39
265,tessalit,29,ML,1578408234,9,20.2,1.01,77.76,6.2
266,khani,75,GE,1578408234,30,41.96,42.96,57.2,12.75
267,ojinaga,1,US,1578408235,38,29.56,-104.41,41.0,2.75
268,la grande,75,US,1578408235,69,45.32,-118.09,46.99,16.11
269,homer,75,US,1578408235,77,59.64,-151.54,15.8,3.36
270,tuatapere,49,NZ,1578408235,78,-46.13,167.69,48.0,3.0
271,yakeshi,77,CN,1578408235,100,49.28,120.73,-10.86,1.83
272,jinchang,100,CN,1578408235,56,38.52,102.19,21.04,1.63
273,komsomolskiy,100,RU,1578408235,95,67.55,63.78,5.85,10.85
274,oxford,1,US,1578408203,57,33.61,-85.83,52.0,11.41
275,tripoli,20,GR,1578408235,37,37.51,22.37,55.4,4.7
276,kralendijk,90,BQ,1578408235,78,12.15,-68.27,82.4,10.29
277,banda aceh,44,ID,1578408236,91,5.56,95.32,72.28,4.79
278,tadpatri,0,IN,1578408236,75,14.92,78.02,74.64,10.22
279,kifri,0,IQ,1578408236,44,34.69,44.96,55.58,3.71
280,hukuntsi,100,BW,1578408236,86,-23.98,21.76,68.02,8.34
281,tasiilaq,100,GL,1578408236,91,65.61,-37.64,12.79,16.6
282,sampit,100,ID,1578408236,93,-2.54,112.95,76.14,1.83
283,kourou,75,GF,1578408236,70,5.16,-52.64,86.0,16.11
284,tutoia,75,BR,1578408236,70,-2.76,-42.27,87.8,14.99
285,roma,100,IT,1578408103,49,41.89,12.48,55.4,3.36
286,kavieng,100,PG,1578408140,73,-2.57,150.8,84.76,11.45
287,lavrentiya,100,RU,1578408236,100,65.58,-170.99,-10.61,2.37
288,fukue,75,JP,1578408236,87,35.03,136.69,46.4,3.36
289,atar,2,MR,1578408236,8,20.52,-13.05,72.32,11.99
290,westport,1,US,1578408173,55,41.14,-73.36,43.0,6.93
291,ayagoz,85,KZ,1578408237,97,47.96,80.43,5.86,6.64
292,praia da vitoria,20,PT,1578408237,68,38.73,-27.07,69.8,20.56
293,mulchen,0,CL,1578408237,72,-37.72,-72.23,59.0,2.24
294,leshukonskoye,84,RU,1578408237,96,64.9,45.76,17.69,5.59
295,angoche,100,MZ,1578408237,97,-16.23,39.91,75.76,1.83
296,constitucion,5,MX,1578408237,86,23.99,-104.67,39.99,4.7
297,lebu,100,ET,1578408237,53,8.96,38.73,66.49,10.38
298,keetmanshoop,91,NA,1578408237,48,-26.57,18.15,82.4,18.34
299,nemuro,0,JP,1578408237,71,43.32,145.57,26.83,4.94
300,along,100,IN,1578408237,78,28.17,94.8,50.34,3.31
301,moose jaw,20,CA,1578408237,77,50.4,-105.54,-2.2,6.93
302,karratha,99,AU,1578408237,73,-20.74,116.85,84.94,8.7
303,iqaluit,20,CA,1578408109,58,63.75,-68.52,-34.01,5.28
304,meulaboh,33,ID,1578408237,65,4.14,96.13,84.16,0.63
305,esperance,0,AU,1578407995,88,-33.86,121.89,66.2,5.82
306,evensk,72,RU,1578408238,68,61.92,159.24,-10.53,3.24
307,muros,20,ES,1578408238,76,42.77,-9.06,61.0,3.36
308,karachi,40,PK,1578408238,55,24.87,67.03,62.6,6.93
309,north platte,1,US,1578408056,78,41.12,-100.77,17.6,4.7
310,desaguadero,0,PE,1578408238,50,-16.56,-69.04,51.62,4.32
311,nkoteng,95,CM,1578408238,17,4.5,12.12,96.67,3.83
312,thayetmyo,0,MM,1578408238,60,19.32,95.18,65.82,2.8
313,zorritos,75,PE,1578408238,33,-3.68,-80.68,89.6,3.36
314,halifax,75,CA,1578408090,100,44.65,-63.58,36.0,8.05
315,bourail,100,NC,1578408238,81,-21.57,165.5,70.34,3.62
316,beira,8,ES,1578408238,82,43.2,-8.36,57.99,8.05
317,nouadhibou,100,MR,1578408238,27,20.93,-17.03,73.4,19.46
318,hami,0,CN,1578408238,53,42.84,93.51,17.6,3.87
319,celestun,79,MX,1578408239,74,20.87,-90.4,72.86,10.18
320,hun,75,BE,1578408239,87,50.34,4.87,48.0,16.11
321,college,95,US,1578408239,73,64.86,-147.8,-23.01,1.41
322,hithadhoo,65,MV,1578408161,75,-0.6,73.08,84.25,15.73
323,muli,88,CN,1578408239,88,28.08,109.56,42.73,8.01
324,ozuluama,0,MX,1578408239,72,21.12,-98.35,63.07,3.11
325,maningrida,100,AU,1578408239,84,-12.05,134.23,77.85,8.34
326,natal,75,BR,1578408239,49,-5.81,-35.21,91.4,11.41
327,caravelas,64,BR,1578408239,68,-17.73,-39.27,86.94,9.71
328,killybegs,90,IE,1578408239,100,54.63,-8.45,55.4,16.11
329,raudeberg,75,NO,1578408239,80,61.99,5.14,45.0,28.86
330,falun,90,SE,1578408239,81,60.61,15.63,43.0,10.29
331,hamilton,90,CA,1578407992,79,43.26,-79.87,35.01,6.93
332,bagotville,40,AU,1578408239,88,-28.98,153.42,73.0,3.36
333,mehamn,100,NO,1578408239,92,71.03,27.85,33.8,29.97
334,iquitos,0,PE,1578408240,100,-3.75,-73.25,42.8,5.82
335,marystown,46,CA,1578408240,83,47.17,-55.16,24.06,2.8
336,victor harbor,0,AU,1578408240,68,-35.55,138.62,75.99,13.87
337,shahr-e kord,0,IR,1578408240,59,32.33,50.85,35.6,4.7
338,guerrero negro,62,MX,1578408240,44,27.97,-114.04,55.9,2.8
339,lugo,51,ES,1578408240,47,43.01,-7.56,62.01,1.99
340,gongzhuling,100,CN,1578408240,98,43.5,124.81,4.78,8.37
341,changying,0,CN,1578408240,93,52.87,123.32,-4.27,3.85
342,antofagasta,0,CL,1578407989,64,-23.65,-70.4,71.6,9.17
343,manado,40,ID,1578408240,94,1.49,124.85,75.2,3.36
344,kaniama,97,CD,1578408240,84,-7.57,24.18,77.45,2.28
345,brae,75,GB,1578408240,87,60.4,-1.35,50.0,27.51
346,yurla,83,RU,1578408240,96,59.33,54.32,6.51,4.63
347,mackay,90,CA,1578408240,77,53.65,-115.58,5.0,5.82
348,vikhorevka,0,RU,1578408240,85,56.12,101.17,10.4,6.71
349,cidreira,0,BR,1578408241,83,-30.17,-50.22,77.05,14.41
350,wilmington,1,US,1578408025,59,39.75,-75.55,39.99,4.43
351,tilichiki,100,RU,1578408241,95,60.47,166.1,3.69,6.11
352,vilhena,100,BR,1578408241,69,-12.74,-60.15,79.66,8.57
353,coari,39,BR,1578408241,55,-4.09,-63.14,89.89,6.26
354,tefe,32,BR,1578408241,66,-3.35,-64.71,87.8,10.29
355,san carlos de bariloche,40,AR,1578408241,54,-41.13,-71.31,57.2,26.4
356,uruzgan,13,AF,1578408241,78,32.93,66.63,12.38,5.86
357,emerald,63,AU,1578408241,73,-23.53,148.16,77.0,9.17
358,jalingo,36,NG,1578408241,18,10.3,10.93,90.12,10.56
359,mayo,90,CA,1578408241,68,63.59,-135.9,-18.4,6.93
360,sola,79,TZ,1578408142,62,-3.17,33.8,78.22,1.43
361,okato,81,NZ,1578408241,71,-39.19,173.88,48.0,3.0
362,prokudskoye,90,RU,1578408241,85,55.01,82.46,19.4,8.95
363,mopti,3,ML,1578408242,9,14.49,-4.19,88.02,8.39
364,presidente medici,78,BR,1578408100,73,-11.18,-61.9,84.33,5.66
365,uyemskiy,90,RU,1578408242,100,64.47,40.85,28.4,4.47
366,visconde do rio branco,34,BR,1578408096,32,-21.01,-42.84,91.99,5.01
367,malibu,40,MX,1578408242,93,16.77,-93.16,60.8,4.83
368,wewak,100,PG,1578408242,88,-3.55,143.63,78.69,9.46
369,kieta,56,PG,1578408242,78,-6.22,155.63,82.72,5.3
370,ukiah,1,US,1578408242,92,39.15,-123.21,39.99,2.75
371,srednekolymsk,43,RU,1578408242,100,67.46,153.71,-22.36,0.89
372,chalus,0,IR,1578408242,76,36.66,51.42,53.6,2.98
373,yamada,75,JP,1578408242,67,36.58,137.08,57.2,12.75
374,maragogi,88,BR,1578408242,68,-9.01,-35.22,80.67,6.15
375,tura,100,RU,1578408243,89,64.27,100.22,3.51,5.46
376,ahuimanu,75,US,1578408243,73,21.44,-157.84,75.2,17.22
377,chumikan,100,RU,1578408243,72,54.72,135.31,12.74,12.66
378,auki,21,NG,1578408243,15,12.18,6.51,87.87,14.85
379,alice springs,75,AU,1578408243,35,-23.7,133.88,84.2,4.7
380,salekhard,0,RU,1578408243,87,66.54,66.62,-0.85,8.81
381,sechura,76,PE,1578408243,83,-5.56,-80.82,71.87,6.44
382,magugu,76,TZ,1578408243,67,-4.02,35.77,78.19,3.09
383,aksarka,18,RU,1578408243,87,66.56,67.8,1.51,10.89
384,bull savanna,3,JM,1578408243,70,17.89,-77.59,77.99,3.89
385,languyan,90,FR,1578408243,100,48.3,-3.83,57.2,12.75
386,salgotarjan,0,HU,1578408243,59,48.1,19.8,28.56,1.5
387,broome,20,GB,1578408243,81,52.47,1.45,52.0,17.22
388,santa barbara,1,US,1578408243,86,34.42,-119.7,59.0,3.36
389,sao filipe,100,CV,1578408243,67,14.9,-24.5,71.08,20.71
390,diebougou,84,BF,1578408243,12,10.97,-3.25,97.61,1.52
391,rio tercero,0,AR,1578408243,22,-32.17,-64.11,85.53,10.76
392,liverpool,75,GB,1578408023,87,53.41,-2.98,57.0,20.8
393,vierzon,90,FR,1578408244,100,47.22,2.07,50.0,3.36
394,bowen,10,AU,1578408244,88,-20.01,148.25,75.99,1.12
395,sao gabriel da cachoeira,23,BR,1578408244,54,-0.13,-67.09,89.38,3.91
396,antalaha,100,MG,1578408244,79,-14.9,50.28,82.87,12.15
397,kolobrzeg,67,PL,1578408244,10,54.18,15.58,34.0,8.3
398,anloga,0,GH,1578408244,38,5.79,0.9,91.4,6.93
399,cabedelo,75,BR,1578408244,53,-6.97,-34.84,86.0,9.17
400,faisalabad,1,PK,1578408244,88,31.42,73.09,50.31,3.15
401,khandyga,100,RU,1578408244,97,62.65,135.58,0.07,1.59
402,sitka,0,US,1578408244,73,37.17,-99.65,21.99,7.45
403,greenville,90,US,1578408125,100,34.85,-82.4,48.99,3.36
404,loandjili,75,CG,1578408244,83,-4.77,11.87,84.2,10.29
405,williamsburg,1,US,1578408244,87,37.27,-76.71,50.0,4.7
406,tiksi,100,RU,1578408244,88,71.64,128.87,-6.32,4.88
407,san cristobal,91,HN,1578408244,77,14.68,-86.92,67.69,4.07
408,barnala,97,IN,1578408244,95,30.38,75.54,53.44,1.99
409,poum,0,MK,1578408244,9,41.28,20.71,41.0,12.75
410,mezen,91,RU,1578408245,96,65.85,44.24,18.54,7.45
411,dudinka,75,RU,1578408245,85,69.41,86.18,10.4,20.13
412,mana,8,NG,1578408245,13,13.03,5.27,88.84,14.88
413,batagay,94,RU,1578408245,94,67.65,134.64,-14.22,0.83
414,manggar,98,ID,1578408245,81,-2.88,108.27,82.33,16.71
415,talcahuano,0,CL,1578408245,55,-36.72,-73.12,64.4,10.29
416,verkhoshizhemye,98,RU,1578408245,97,58.01,49.1,12.72,4.59
417,peniche,0,PT,1578408048,62,39.36,-9.38,59.0,5.82
418,puerto del rosario,40,ES,1578408245,68,28.5,-13.86,68.0,11.41
419,ternate,75,PH,1578408245,74,14.29,120.72,81.0,5.82
420,kalevala,100,FI,1578408245,96,64.12,29.58,36.52,11.45
421,gobabis,97,NA,1578408245,60,-22.45,18.97,76.41,7.61
422,dimitrovgrad,0,BG,1578408049,32,42.06,25.59,41.0,8.05
423,hirara,33,JP,1578408245,78,24.8,125.28,73.74,11.72
424,otavi,100,NA,1578408245,48,-19.64,17.34,75.58,11.92
425,great bend,1,US,1578408101,85,38.36,-98.78,24.01,6.93
426,high level,90,CA,1578408246,74,58.52,-117.13,-23.8,3.36
427,lawton,1,US,1578408246,58,34.61,-98.39,30.2,3.49
428,nanortalik,100,GL,1578408246,88,60.14,-45.24,19.36,24.36
429,namatanai,100,PG,1578408246,76,-3.66,152.44,83.23,4.23
430,houma,66,CN,1578408246,93,35.63,111.36,28.24,1.9
431,manzil bu zalafah,40,TN,1578408246,51,36.68,10.58,62.6,12.75
432,santa vitoria do palmar,0,BR,1578408246,34,-33.52,-53.37,79.41,9.93
433,madison,90,US,1578408246,82,43.07,-89.38,32.0,9.17
434,fredonia,20,CO,1578408246,60,5.93,-75.67,69.8,1.05
435,corn island,1,NI,1578408246,77,12.17,-83.04,80.06,17.16
436,berlevag,100,NO,1578408246,85,70.86,29.09,32.0,29.97
437,boca do acre,23,BR,1578408246,46,-8.76,-67.39,91.63,5.37
438,churapcha,94,RU,1578408246,97,62.0,132.43,2.86,2.44
439,natchez,1,US,1578408246,75,31.56,-91.4,46.4,4.7
440,bella union,0,CO,1578408246,56,8.5,-73.35,77.85,3.13
441,uruacu,100,BR,1578408064,80,-14.52,-49.14,77.43,2.48
442,bilibino,0,RU,1578408247,84,68.06,166.44,-25.51,2.95
443,green valley,1,US,1578408247,63,40.41,-89.64,33.01,5.82
444,marrakesh,0,MA,1578408247,45,31.63,-7.99,64.4,4.7
445,tartagal,90,AR,1578408023,88,-22.52,-63.8,71.6,4.52
446,comodoro rivadavia,40,AR,1578408247,25,-45.87,-67.48,73.4,32.21
447,eatonton,90,US,1578408247,81,33.33,-83.39,54.0,6.93
448,saint-joseph,40,FR,1578408247,66,43.56,6.97,57.2,6.93
449,san pedro,0,AR,1578408157,31,-33.68,-59.66,82.0,7.0
450,mabaruma,14,GY,1578408247,58,8.2,-59.78,85.28,4.52
451,baghmara,58,IN,1578408247,53,23.8,86.21,62.58,3.71
452,shellbrook,5,CA,1578408247,75,53.22,-106.39,-14.8,5.82
453,port shepstone,100,ZA,1578408247,88,-30.74,30.45,76.28,3.76
454,maniitsoq,100,GL,1578408247,97,65.42,-52.9,-0.67,20.58
455,san antonio,99,CL,1578408241,72,-33.58,-71.61,66.2,6.93
456,yumen,53,CN,1578408247,62,40.29,97.04,17.73,6.22
457,mae chan,40,TH,1578408247,88,20.15,99.85,71.6,1.12
458,atbasar,81,KZ,1578408248,95,51.81,68.36,8.62,1.7
459,uribia,18,CO,1578408248,65,11.71,-72.27,84.16,14.47
460,lagoa,0,PT,1578408248,67,37.14,-8.45,64.99,11.41
461,berezovyy,0,RU,1578408248,88,51.67,135.7,3.72,4.85
462,christchurch,88,NZ,1578408248,71,-43.53,172.64,53.01,6.93
463,meiganga,50,CM,1578408248,18,6.52,14.29,91.17,9.22
464,fort-shevchenko,94,KZ,1578408248,62,44.51,50.26,32.72,13.53
465,luanda,58,AO,1578408136,76,-8.83,13.24,83.03,8.21
466,inta,92,RU,1578408248,92,66.04,60.13,7.68,14.76
467,lubango,37,AO,1578408248,72,-14.92,13.49,68.85,10.27
468,batemans bay,97,AU,1578408248,89,-35.71,150.18,66.99,1.99
469,alofi,100,NU,1578408248,94,-19.06,-169.92,75.2,3.36
470,lebedinyy,100,RU,1578408248,95,58.52,125.52,13.14,15.03
471,khash,0,IR,1578408248,47,28.22,61.21,48.51,6.31
472,casa grande,40,PE,1578408248,93,-7.74,-79.19,66.2,9.17
473,umm lajj,0,SA,1578408249,50,25.02,37.27,60.48,6.55
474,ambanja,40,MG,1578408249,84,-13.68,48.45,86.0,4.7
475,nuuk,90,GL,1578407976,84,64.17,-51.74,5.0,24.16
476,bria,0,CF,1578408249,19,6.54,21.99,96.6,8.1
477,port augusta,0,AU,1578408249,64,-32.49,137.76,75.0,10.29
478,dhilwan,100,IN,1578408249,97,30.78,76.19,54.25,5.48
479,ust-ishim,77,RU,1578408249,94,57.69,71.17,2.39,2.89
480,birjand,0,IR,1578408249,38,32.86,59.22,39.2,4.7
481,plettenberg bay,100,ZA,1578408249,90,-34.05,23.37,69.91,13.06
482,jalu,33,LY,1578408249,45,29.03,21.55,58.87,12.37
483,nelson bay,100,AU,1578408249,69,-32.72,152.14,78.8,8.05
484,mbandaka,16,CD,1578408249,25,0.05,18.26,98.46,4.79
485,huanren,100,CN,1578408249,89,41.26,125.37,14.95,8.86
486,pareora,99,NZ,1578408249,88,-44.49,171.21,52.0,2.46
487,okhotsk,52,RU,1578408249,73,59.36,143.24,-10.98,7.74
488,marfino,90,RU,1578408250,86,56.07,37.56,32.0,8.95
489,ararat,40,AM,1578408250,64,39.85,44.7,37.4,1.12
490,richards bay,100,ZA,1578408250,81,-28.77,32.06,79.38,24.94
491,havelock,1,US,1578408082,62,34.88,-76.9,59.0,3.36
492,cap malheureux,40,MU,1578408250,79,-19.98,57.61,84.2,3.36
493,zhanaozen,68,KZ,1578408250,61,43.35,52.85,30.52,15.52
494,palana,38,RU,1578408250,77,59.08,159.95,4.41,4.32
495,galle,63,GN,1578408250,19,10.08,-12.83,92.41,4.14
496,madang,100,CN,1578408250,64,35.32,102.79,22.15,0.98
497,conakry,7,GN,1578408250,54,9.52,-13.7,83.08,10.51
498,den helder,90,NL,1578408233,93,52.96,4.76,48.99,19.46
499,helvecia,0,AR,1578408250,18,-31.1,-60.09,86.58,6.64
500,kavaratti,96,IN,1578408251,72,10.57,72.64,82.38,8.55
501,tezu,100,IN,1578408251,57,27.93,96.16,56.23,3.11
502,haines junction,100,CA,1578408251,99,60.75,-137.51,-7.92,5.39
503,sumbe,100,AO,1578408251,66,-11.2,13.84,84.69,8.41
504,port-gentil,40,GA,1578408251,74,-0.72,8.78,86.0,3.36
505,neuquen,0,AR,1578408251,28,-38.95,-68.06,84.0,10.29
506,gisborne,72,NZ,1578408038,70,-38.66,178.02,57.0,1.99
507,buchanan,40,LR,1578408251,59,5.88,-10.05,91.4,8.05
508,nokaneng,67,BW,1578408251,52,-19.66,22.19,81.9,7.31
509,launceston,100,AU,1578408012,93,-41.43,147.14,60.01,2.24
510,amahai,100,ID,1578408251,71,-3.31,129.0,88.0,4.0
511,isilkul,100,RU,1578408251,96,54.9,71.26,13.19,3.87
512,rumphi,94,MW,1578408251,85,-11.02,33.86,75.49,0.78
513,kirkwall,75,GB,1578408251,93,58.98,-2.96,53.01,20.8
514,soyo,75,AO,1578408251,66,-6.13,12.37,87.8,8.05
515,dubbo,75,AU,1578408251,69,-32.25,148.6,75.2,13.87
516,fairbanks,98,US,1578408187,73,64.84,-147.72,-23.01,0.47
517,cajueiro,75,BR,1578408252,55,-9.4,-36.15,87.8,9.17
518,antigonish,20,CA,1578408252,79,45.62,-61.99,30.0,5.82
519,anadyr,40,RU,1578408252,75,64.73,177.51,-18.0,6.71
520,buturlino,18,RU,1578408252,94,55.57,44.9,12.04,4.21
521,margate,90,AU,1578408252,82,-43.03,147.26,59.0,8.05
522,guayaramerin,86,BO,1578408252,64,-10.82,-65.36,88.63,4.76
523,damaturu,16,NG,1578408252,20,11.75,11.96,89.01,12.17
524,sarh,0,TD,1578408252,16,9.14,18.39,95.0,4.7
525,poronaysk,0,RU,1578408252,74,49.22,143.1,14.9,4.32
526,ovalle,0,CL,1578407962,40,-30.6,-71.2,73.65,7.72
527,suntar,100,RU,1578408252,93,62.16,117.65,16.97,8.28
528,ipswich,0,AU,1578408252,73,-27.62,152.76,75.99,4.7
529,ketchikan,1,US,1578408252,79,55.34,-131.65,28.4,10.29
530,imperia,75,IT,1578408252,67,43.88,8.02,57.2,13.87
531,omurtag,20,BG,1578408146,59,43.1,26.42,33.8,5.82
532,viedma,0,AR,1578408252,25,-40.81,-62.99,79.79,14.27
533,bilimora,0,IN,1578408253,65,20.77,72.97,77.0,7.14
534,tambacounda,100,SN,1578408253,12,13.77,-13.67,84.2,6.93
535,pontianak,75,ID,1578408104,88,-0.02,109.34,80.6,3.36
536,egvekinot,0,RU,1578408253,68,66.32,-179.17,-19.01,1.07
537,pangnirtung,100,CA,1578408253,99,66.15,-65.72,-42.79,3.15
538,osa,100,RU,1578408253,96,57.28,55.46,14.56,1.99
539,palafrugell,66,ES,1578408253,54,41.92,3.16,62.01,1.12
540,nantucket,1,US,1578408253,48,41.28,-70.1,39.2,13.87
541,serra,20,BR,1578408150,70,-20.13,-40.31,87.8,19.46
542,vrede,99,ZA,1578408253,33,-27.43,29.16,80.02,8.43
543,belmonte,0,PT,1578408254,15,40.36,-7.35,63.0,1.99
544,lake havasu city,1,US,1578408254,42,34.47,-114.34,48.2,8.05
545,luau,92,CD,1578408254,74,-10.7,22.23,74.01,1.95
546,nizhniy odes,96,RU,1578408254,95,63.64,54.86,9.0,5.55
547,hailar,59,CN,1578408254,100,49.2,119.7,-6.02,3.74
548,dorogobuzh,100,RU,1578408254,94,54.91,33.3,29.34,6.22
549,flagstaff,1,US,1578408233,92,35.2,-111.65,39.2,5.01
550,riyadh,72,SA,1578408203,42,24.63,46.72,62.6,4.7
551,gladstone,40,AU,1578408046,69,-23.84,151.26,77.0,5.82
552,sterling,75,US,1578408230,69,39.0,-77.4,41.0,4.85
553,jacareacanga,51,BR,1578408254,88,-6.22,-57.76,82.22,4.38
554,alta floresta,94,BR,1578408254,66,-9.87,-56.08,87.8,4.7
555,gizo,90,IL,1578408254,58,31.8,34.94,59.0,17.22
556,phuket,20,TH,1578408159,83,7.89,98.4,77.0,1.12
557,puertollano,1,ES,1578408060,54,38.69,-4.11,59.0,1.83
558,trairi,75,BR,1578408254,55,-3.28,-39.27,87.42,4.97
559,maceio,75,BR,1578408010,55,-9.67,-35.74,87.8,9.17
560,obeliai,100,LT,1578408255,91,55.94,25.8,33.21,7.2
561,kisiwani,96,TZ,1578408255,78,-4.13,37.95,76.57,7.16
562,tumut,63,AU,1578408255,64,-35.3,148.22,65.14,3.31
563,nishihara,90,JP,1578408255,100,35.74,139.53,42.01,8.05
564,lerik,40,AZ,1578408255,59,38.78,48.42,42.8,16.11
